[
    {
        "id": "baiyappanahalli",
        "name": "Baiyappanahalli",
        "lat": 12.991898254552773,
        "lon": 77.65287394563238,
        "lines": ["Purple"],
        "connections": [
            "benniganahalli",
            "swami_vivekananda_road"
        ]
    },
    {
        "id": "whitefield_kadugodi",
        "name": "Whitefield (Kadugodi)",
        "lat": 12.995487735920735, 
        "lon": 77.75856101443354,
        "lines": ["Purple"],
        "connections": [
            "channasandra_hopefarm"
        ]
    },
    {
        "id": "channasandra_hopefarm",
        "name": "Channasandra (Hopefarm)",
        "lat": 12.987306594457198, 
        "lon": 77.75450949908782,
        "lines": ["Purple"],
        "connections": [
            "whitefield_kadugodi",
            "kadugodi_tree_park"
        ]
    },
    {
        "id": "kadugodi_tree_park",
        "name": "Kadugodi Tree Park",
        "lat": 12.986136336544561, 
        "lon": 77.74708246076865,
        "lines": ["Purple"],
        "connections": [
            "channasandra_hopefarm",
            "pattandur_agrahara"
        ]
    },
    {
        "id": "pattandur_agrahara",
        "name": "Pattandur Agrahara",
        "lat": 12.987810166063946, 
        "lon": 77.73770480937712,
        "lines": ["Purple"],
        "connections": [
            "kadugodi_tree_park",
            "srisatyasai_hospital"
        ]
    },
    {
        "id": "srisatyasai_hospital",
        "name": "Sri Sathya Sai Hospital",
        "lat": 12.98116226518972, 
        "lon": 77.72759321436031,
        "lines": ["Purple"],
        "connections": [
            "pattandur_agrahara",
            "nallurhalli"
        ]
    },
    {
        "id": "nallurhalli",
        "name": "Nallurhalli",
        "lat": 12.976851538889647, 
        "lon": 77.72475199588612,
        "lines": ["Purple"],
        "connections": [
            "srisatyasai_hospital",
            "kundalahalli"
        ]
    },
    {
        "id": "kundalahalli",
        "name": "Kundalahalli",
        "lat": 12.977870795769432, 
        "lon": 77.71557852970554, 
        "lines": ["Purple"],
        "connections": [
            "nallurhalli",
            "seetharampalya"
        ]
    },
    {
        "id": "seetharampalya",
        "name": "Seetharam Palya",
        "lat": 12.980958743271398, 
        "lon": 77.7088784112317,
        "lines": ["Purple"],
        "connections": [
            "kundalahalli",
            "hoodi"
        ]
    },
    {
        "id": "hoodi",
        "name": "Hoodi",
        "lat": 12.988938802219518, 
        "lon": 77.71139618239542,
        "lines": ["Purple"],
        "connections": [
            "seetharampalya",
            "garudacharpalya"
        ]
    },
    {
        "id": "garudacharpalya",
        "name": "Garudacharpalya",
        "lat": 12.993674661615184, 
        "lon": 77.70367573821356,
        "lines": ["Purple"],
        "connections": [
            "hoodi",
            "singayyanapalya"
        ]
    },
    {
        "id": "singayyanapalya",
        "name": "Singayyanapalya",
        "lat": 12.996717350894556, 
        "lon": 77.69235894748901,
        "lines": ["Purple"],
        "connections": [
            "garudacharpalya",
            "kr_pura"
        ]
    },
    {
        "id": "kr_pura",
        "name": "KR Puram",
        "lat": 13.000065925885721, 
        "lon": 77.67764915355912,
        "lines": ["Purple"],
        "connections": [
            "singayyanapalya",
            "benniganahalli"
        ]
    },
    {
        "id": "benniganahalli",
        "name": "Benniganahalli",
        "lat": 12.996655945418082, 
        "lon": 77.66823060937723,
        "lines": ["Purple"],
        "connections": [
            "kr_pura",
            "baiyappanahalli"
        ]
    },
    {
        "id": "swami_vivekananda_road",
        "name": "Swami Vivekananda Road",
        "lat": 12.985960468610926, 
        "lon": 77.64513020948337,
        "lines": ["Purple"],
        "connections": [
            "baiyappanahalli",
            "indiranagar"
        ]
    },
    {
        "id": "indiranagar",
        "name": "Indiranagar",
        "lat": 12.978251432574671, 
        "lon": 77.63851496704979,
        "lines": ["Purple"],
        "connections": [
            "swami_vivekananda_road",
            "halasuru"
        ]
    },
    {
        "id": "halasuru",
        "name": "Halasuru",
        "lat": 12.976398003410191, 
        "lon": 77.62667201890453,
        "lines": ["Purple"],
        "connections": [
            "indiranagar",
            "trinity"
        ]
    },
    {
        "id": "trinity",
        "name": "Trinity",
        "lat": 12.973331532372258, 
        "lon": 77.61571899588613,
        "lines": ["Purple"],
        "connections": [
            "mg_road",
            "halasuru"
        ]
    },
    {
        "id": "mg_road",
        "name": "Mahatma Gandhi Road",
        "lat": 12.97300028735108, 
        "lon": 77.61676736704966,
        "lines": ["Purple"],
        "connections": [
            "trinity",
            "cubbon_park"
        ]
    },
    {
        "id": "cubbon_park",
        "name": "Cubbon Park",
        "lat": 12.980911242004089, 
        "lon": 77.59746539588619,
        "lines": ["Purple"],
        "connections": [
            "mg_road",
            "vidhana_soudha"
        ]
    },
    {
        "id": "vidhana_soudha",
        "name": "Vidhana Soudha",
        "lat": 12.979702942056047, 
        "lon": 77.5926342958862,
        "lines": ["Purple"],
        "connections": [
            "cubbon_park",
            "central_college"
        ]
    },
    {
        "id": "central_college",
        "name": "Central College",
        "lat": 12.974270032410853, 
        "lon": 77.58392433821328,
        "lines": ["Purple"],
        "connections": [
            "vidhana_soudha",
            "majestic"
        ]
    },
    {
        "id": "majestic",
        "name": "Kempegowda Station, Majestic",
        "lat": 12.9756710449676, 
        "lon": 77.57285470086886,
        "lines": ["Purple", "Green"],
        "connections": [
            "central_college",
            "ksr_city",
            "chickpet",
            "sampige_road"
        ]
    },
    {
        "id": "ksr_city",
        "name": "KSR City Railway Station",
        "lat": 12.975829832475025, 
        "lon": 77.56575609588617,
        "lines": ["Purple"],
        "connections": [
            "majestic",
            "magadi_road"
        ]
    },
    {
        "id": "magadi_road",
        "name": "Magadi Road",
        "lat": 12.975626822704005, 
        "lon": 77.55540076704972,
        "lines": ["Purple"],
        "connections": [
            "ksr_city",
            "hosahalli"
        ]
    },
    {
        "id": "hosahalli",
        "name": "Hosahalli",
        "lat": 12.974302077474887, 
        "lon": 77.54508496704973,
        "lines": ["Purple"],
        "connections": [
            "magadi_road",
            "vijayanagar"
        ]
    },
    {
        "id": "vijayanagar",
        "name": "Vijayanagar",
        "lat": 12.970788322098278, 
        "lon": 77.5373530670497,
        "lines": ["Purple"],
        "connections": [
            "hosahalli",
            "attiguppe"
        ]
    },
    {
        "id": "attiguppe",
        "name": "Attiguppe",
        "lat": 12.96205930827892, 
        "lon":77.5337045284318,
        "lines": ["Purple"],
        "connections": [
            "vijayanagar",
            "deepanjali_nagar"
        ]
    },
    {
        "id": "deepanjali_nagar",
        "name": "Deepanjali Nagar",
        "lat": 12.952294990582072, 
        "lon": 77.53695628666254,
        "lines": ["Purple"],
        "connections": [
            "attiguppe",
            "mysuru_road"
        ]
    },
    {
        "id": "mysuru_road",
        "name": "Mysuru Road",
        "lat": 12.946695419084978, 
        "lon": 77.53007389588575,
        "lines": ["Purple"],
        "connections": [
            "deepanjali_nagar",
            "nayandahalli"
        ]
    },
    {
        "id": "nayandahalli",
        "name": "Nayandahalli",
        "lat": 12.946198082194732, 
        "lon": 77.52982526561338,
        "lines": ["Purple"],
        "connections": [
            "mysuru_road",
            "rajarajeshwari_nagar"
        ]
    },
    {
        "id": "rajarajeshwari_nagar",
        "name": "Rajarajeshwari Nagar",
        "lat": 12.936661617831742, 
        "lon": 77.51955599588568,
        "lines": ["Purple"],
        "connections": [
            "nayandahalli",
            "jnanabharathi"
        ]
    },
    {
        "id": "jnanabharathi",
        "name": "Jnanabharathi",
        "lat": 12.935315417663707, 
        "lon": 77.51202943821282,
        "lines": ["Purple"],
        "connections": [
            "rajarajeshwari_nagar",
            "pattanagere"
        ]
    },
    {
        "id": "pattanagere",
        "name": "Pattanagere",
        "lat": 12.924227816280027, 
        "lon": 77.49846709588553,
        "lines": ["Purple"],
        "connections": [
            "jnanabharathi",
            "kengeri_bus"
        ]
    },
    {
        "id": "kengeri_bus",
        "name": "Kengeri Bus Terminal",
        "lat": 12.914652444844307, 
        "lon": 77.48769326704902,
        "lines": ["Purple"],
        "connections": [
            "pattanagere",
            "kengeri"
        ]
    },
    {
        "id": "kengeri",
        "name": "Kengeri",
        "lat": 12.907933398810089, 
        "lon": 77.47597586704896,
        "lines": ["Purple"],
        "connections": [
            "kengeri_bus",
            "challaghatta"
        ]
    },
    {
        "id": "challaghatta",
        "name": "Challaghatta",
        "lat": 12.897347312930583, 
        "lon": 77.46124079588519,
        "lines": ["Purple"],
        "connections": [
            "kengeri"
        ]
    },
    {
        "id": "silk_institute",
        "name": "Silk Institute",  
        "lat": 12.861193127780181, 
        "lon": 77.52971056704831,
        "lines": ["Green"],
        "connections": [
            "thalaghattapura"
        ]
    },
    {
        "id": "thalaghattapura",
        "name": "Thalaghattapura",
        "lat": 12.870988996198747, 
        "lon": 77.53820956704844,
        "lines": ["Green"],
        "connections": [
            "silk_insitute",
            "vajarahalli"
        ]
    },
    {
        "id": "vajarahalli",
        "name": "Vajarahalli",
        "lat": 12.884846935323349, 
        "lon": 77.55278469588504,
        "lines": ["Green"],
        "connections": [
            "thalaghattapura",
            "doddakallasandra"
        ]
    },
    {
        "id": "doddakallasandra",
        "name": "Doddakallasandra",
        "lat": 12.89599182179828, 
        "lon": 77.5654102670487,
        "lines": ["Green"],
        "connections": [
            "vajarahalli",
            "konankunte_cross"
        ]
    },
    {
        "id":"konankunte_cross",
        "name":"Konankunte Cross",  
        "lat": 12.888266805721317, 
        "lon": 77.56212910389664,
        "lines": ["Green"],
        "connections": [
            "doddakallasandra",
            "yellechenahalli"
        ]
    },
    {
        "id":"yellechenahalli",
        "name":"Yellechenahalli",  
        "lat": 12.896021480330857, 
        "lon": 77.5701391143514,
        "lines": ["Green"],
        "connections": [
            "konankunte_cross",
            "jayaprakash_nagar"
        ]
    },
    {
        "id":"jayaprakash_nagar",
        "name":"Jayaprakash Nagar",  
        "lat": 12.907503998720719, 
        "lon": 77.57303953821254,
        "lines": ["Green"],
        "connections": [
            "yellechenahalli",
            "banashankari"
        ]
    },
    {
        "id":"banashankari",
        "name":"Banashankari",  
        "lat": 12.915410772587752, 
        "lon": 77.57367179588545,
        "lines": ["Green"],
        "connections": [
            "jayaprakash_nagar",
            "rashtreeya_vidyalaya_road"
        ]
    },
    {
        "id":"rashtreeya_vidyalaya_road",
        "name":"Rashtreeya Vidyalaya Road",  
        "lat": 12.921545858795653, 
        "lon": 77.58026109588545,
        "lines": ["Green", "Yellow"],
        "connections": [
            "banashankari",
            "jayanagar",
            "ragigudda"
        ]
    },
    {
        "id":"jayanagar",
        "name":"Jayanagar",  
        "lat": 12.929478116935046, 
        "lon": 77.58011006704922,
        "lines": ["Green"],
        "connections": [
            "rashtreeya_vidyalaya_road",
            "south_end_circle"
        ]
    },
    {
        "id":"south_end_circle",
        "name":"South End Circle",  
        "lat": 12.938299874484592, 
        "lon": 77.58010698239484,
        "lines": ["Green"],
        "connections": [
            "jayanagar",
            "lalbagh"
        ]
    },
    {
        "id":"lalbagh",
        "name":"Lalbagh",  
        "lat": 12.946266075145543, 
        "lon": 77.58006109588575,
        "lines": ["Green"],
        "connections": [
            "south_end_circle",
            "national_college"
        ]
    },
    {
        "id":"national_college",
        "name":"National College",  
        "lat": 12.950582119570708, 
        "lon": 77.57375765355859,
        "lines": ["Green"],
        "connections": [
            "lalbagh",
            "kr_market"
        ]
    },
    {
        "id":"kr_market",
        "name":"Krishna Rajendra Market",
        "lat": 12.9604564208053, 
        "lon": 77.57450285355866, 
        "lines": ["Green"],  
        "connections": [
            "national_college",
            "chickpet"
        ]
    },
    {
        "id":"chickpet",
        "name":"Chickpet",  
        "lat": 12.967514721688417, 
        "lon": 77.57480322472244,
        "lines": ["Green"],
        "connections": [
            "kr_market",
            "majestic"
        ]
    },
    {
        "id":"sampige_road",
        "name":"Sampige Road",  
        "lat": 12.990513824569282, 
        "lon": 77.57081562472273,
        "lines": ["Green"],
        "connections": [
            "srirampura",
            "majestic"
        ]
    },
    {
        "id":"srirampura",
        "name":"Srirampura",  
        "lat": 12.996536241332281, 
        "lon": 77.56343139774111,
        "lines": ["Green"],
        "connections": [
            "sampige_road",
            "kuvempu_road"
        ]
    },
    {
        "id":"kuvempu_road",
        "name":"Kuvempu Road",  
        "lat": 12.998450017724577, 
        "lon": 77.55693646705011,
        "lines": ["Green"],
        "connections": [
            "srirampura",
            "rajajinagar"
        ]
    },
    {
        "id":"rajajinagar",
        "name":"Rajajinagar",  
        "lat": 13.000314425798502, 
        "lon": 77.54974829588639,
        "lines": ["Green"],
        "connections": [
            "kuvempu_road",
            "mahalakshmi"
        ]
    },
    {
        "id":"mahalakshmi",
        "name":"Mahalakshmi",  
        "lat": 13.00831668030776, 
        "lon": 77.54883419588664,
        "lines": ["Green"],
        "connections": [
            "rajajinagar",
            "sandal_soap_factory"
        ]
    },
    {
        "id":"sandal_soap_factory",
        "name":"Sandal Soap Factory",  
        "lat": 13.014686774366744, 
        "lon": 77.554041624723,
        "lines": ["Green"],
        "connections": [
            "mahalakshmi",
            "yeshwanthpur"
        ]
    },
    {
        "id":"yeshwanthpur",
        "name":"Yeshwanthpur",  
        "lat": 13.023277928682067, 
        "lon": 77.54988505355948,
        "lines": ["Green"],
        "connections": [
            "sandal_soap_factory",
            "goraguntepalya"
        ]
    },
    {
        "id":"goraguntepalya",
        "name":"Goraguntepalya",  
        "lat": 13.028454629332893, 
        "lon": 77.54091021123236,
        "lines": ["Green"],
        "connections": [
            "yeshwanthpur",
            "peenya"
        ]
    },
    {
        "id":"peenya",
        "name":"Peenya",  
        "lat": 13.032965982365148, 
        "lon": 77.53349055355964,
        "lines": ["Green"],
        "connections": [
            "goraguntepalya",
            "peenya_industry"
        ]
    },
    {
        "id":"peenya_industry",
        "name":"Peenya Industry",  
        "lat": 13.03642698265441, 
        "lon": 77.52549451123254,
        "lines": ["Green"],
        "connections": [
            "jalahalli",
            "peenya"
        ]
    },
    {
        "id":"jalahalli",
        "name":"Jalahalli",  
        "lat": 13.039462178527321, 
        "lon": 77.51998372472329,
        "lines": ["Green"],
        "connections": [
            "peenya_industry",
            "dasarahalli"
        ]
    },
    {
        "id":"dasarahalli",
        "name":"Dasarahalli",  
        "lat": 13.04354188728701, 
        "lon": 77.51236836705054,
        "lines": ["Green"],
        "connections": [
            "nagasandra",
            "dasarahalli"
        ]
    },
    {
        "id":"nagasandra",
        "name":"Nagasandra",  
        "lat": 13.048081931802587, 
        "lon": 77.50009090937787,
        "lines": ["Green"],
        "connections": [
            "dasarahalli",
            "manjunathanagar"
        ]
    },
    {
        "id":"manjunathanagar",
        "name":"Manjunathanagar",  
        "lat": 13.05011873204336, 
        "lon": 77.49440695348761,
        "lines": ["Green"],
        "connections": [
            "nagasandra",
            "chikkabidarakallu"
        ]
    },
    {
        "id":"chikkabidarakallu",
        "name":"Chikkabidarakallu",  
        "lat": 13.052291583981063, 
        "lon": 77.48820408239631,
        "lines": ["Green"],
        "connections": [
            "madavara",
            "manjunathanagar"
        ]
    },
    {
        "id":"madavara",
        "name":"Madavara",  
        "lat": 13.057319878661831, 
        "lon": 77.47295969588713,
        "lines": ["Green"],
        "connections": [
            "chikkabidarakallu"
        ]
    },
    {
        "id":"ragigudda",
        "name":"Ragigudda",  
        "lat": 12.916955094578647, 
        "lon": 77.5881682242188,
        "lines": ["Yellow"],
        "connections": [
            "rashtreeya_vidyalaya_road",
            "jayadeva_hospital"
        ]
    },
    {
        "id":"jayadeva_hospital",
        "name":"Jayadeva Hospital",  
        "lat": 12.916722846512402, 
        "lon": 77.60008897526072,
        "lines": ["Yellow", "Pink"],
        "connections": [
            "ragigudda",
            "btm_layout"
        ]
    },
    {
        "id":"btm_layout",
        "name":"BTM Layout",  
        "lat": 12.916456615311018, 
        "lon": 77.60805026704908,
        "lines": ["Yellow"],
        "connections": [
            "jayadeva_hospital",
            "central_silk_board"
        ]
    },
    {
        "id":"central_silk_board",
        "name":"Central Silk Board",  
        "lat": 12.91639387111091, 
        "lon": 77.62054936106136,
        "lines": ["Yellow", "Blue"],
        "connections": [
            "btm_layout",
            "bommanahalli"
        ]
    },
    {
        "id":"bommanahalli",
        "name":"Bommanahalli",  
        "lat": 12.910700214593557, 
        "lon": 77.62633862472171,
        "lines": ["Yellow"],
        "connections": [
            "central_silk_board",
            "hongasandra"
        ]
    },
    {
        "id":"hongasandra",
        "name":"Hongasandra",  
        "lat": 12.90166985548721, 
        "lon": 77.6319659382124,
        "lines": ["Yellow"],
        "connections": [
            "bommanahalli",
            "kudlu_gate"
        ]
    },
    {
        "id":"kudlu_gate",
        "name":"Kudlu Gate",  
        "lat": 12.889989212014854, 
        "lon": 77.63916043821227,
        "lines": ["Yellow"],
        "connections": [
            "hongasandra",
            "singasandra"
        ]
    },
    {
        "id":"singasandra",
        "name":"Singasandra",  
        "lat": 12.880627033721462, 
        "lon": 77.64483445541244,
        "lines": ["Yellow"],
        "connections": [
            "kudlu_gate",
            "hosa_road"
        ]
    },
    {
        "id":"hosa_road",
        "name":"Hosa Road",  
        "lat": 12.87012740954581, 
        "lon": 77.65273343821202,
        "lines": ["Yellow"],
        "connections": [
            "singasandra",
            "beratena_agrahara"
        ]
    },
    {
        "id":"beratena_agrahara",
        "name":"Beratena Agrahara",  
        "lat": 12.863634149170018, 
        "lon": 77.65788626704835,
        "lines": ["Yellow"],
        "connections": [
            "hosa_road",
            "electronic_city"
        ]
    },
    {
        "id":"electronic_city",
        "name":"Electronic City",  
        "lat": 12.85638152573334, 
        "lon": 77.66342574428732,
        "lines": ["Yellow"],
        "connections": [
            "beratena_agrahara",
            "konnapana_agrahara"
        ]
    },
    {
        "id":"konnapana_agrahara",
        "name":"Konnapana Agrahara",  
        "lat": 12.846218207690127, 
        "lon": 77.6711356334942,
        "lines": ["Yellow"],
        "connections": [
            "electronic_city",
            "huskur_road"
        ]
    },
    {
        "id":"huskur_road",
        "name":"Huskur Road",  
        "lat": 12.838885432660632, 
        "lon": 77.67744418907328,
        "lines": ["Yellow"],
        "connections": [
            "konnapana_agrahara",
            "hebbagodi"
        ]
    },
    {
        "id":"hebbagodi",
        "name":"Hebbagodi",  
        "lat": 12.82894775751748, 
        "lon": 77.68140580121417,
        "lines": ["Yellow"],
        "connections": [
            "huskur_road",
            "bommasandra"
        ]
    },
    {
        "id":"bommasandra",
        "name":"Bommasandra",  
        "lat": 12.81930009527172, 
        "lon": 77.68833996005503,
        "lines": ["Yellow"],
        "connections": [
            "hebbagodi"
        ]
    }
]